{
    "type": "FeatureCollection",
    "features": [
      {
        "type": "Feature",
        "properties": {
          "name": "Riyadh",
          "IMG":"https://content.r9cdn.net/rimg/dimg/7d/60/488863c5-city-35744-16935f1b104.jpg?crop=true&width=1366&height=768&xhint=1725&yhint=1010",
          "name_arabic": "الرياض"
        },
        "geometry": {
          "type": "Point",
          "coordinates": [
            46.737529,
            24.770637
          ]
        }
     
      },
      {
        "type": "Feature",
        "properties": {
          "name": "TABUK",
          "IMG":"https://content.r9cdn.net/rimg/dimg/7d/60/488863c5-city-35744-16935f1b104.jpg?crop=true&width=1366&height=768&xhint=1725&yhint=1010",
          "name_arabic": "تبوك"
        },
        "geometry": {
          "type": "Point",
          "coordinates": [
            36.580172,
            28.403825
          ]
        }
     
      },
      {
        "type": "Feature",
        "properties": {
          "name": "AL BAHA",
          "IMG":"https://content.r9cdn.net/rimg/dimg/7d/60/488863c5-city-35744-16935f1b104.jpg?crop=true&width=1366&height=768&xhint=1725&yhint=1010",
          "name_arabic": "الباحة"
        },
        "geometry": {
          "type": "Point",
          "coordinates": [
            41.458542,
            20.001363
          ]
        }
     
      },
      {
        "type": "Feature",
        "properties": {
          "name": "AL JOUF",
          "IMG":"https://content.r9cdn.net/rimg/dimg/7d/60/488863c5-city-35744-16935f1b104.jpg?crop=true&width=1366&height=768&xhint=1725&yhint=1010",
          "name_arabic": "الجوف"
        },
        "geometry": {
          "type": "Point",
          "coordinates": [
            40.191242,
            29.959978
          ]
        }
     
      },
      {
        "type": "Feature",
        "properties": {
          "name": "AL MADINAH AL MUNAWWARAH",
          "IMG":"https://content.r9cdn.net/rimg/dimg/7d/60/488863c5-city-35744-16935f1b104.jpg?crop=true&width=1366&height=768&xhint=1725&yhint=1010",
          "name_arabic": "المدينة المنورة"
        },
        "geometry": {
          "type": "Point",
          "coordinates": [
            39.554498,
            24.559040
          ]
        }
     
      },
      {
        "type": "Feature",
        "properties": {
          "name": "MAKKAH AL MUKARRAMAH",
          "IMG":"https://content.r9cdn.net/rimg/dimg/7d/60/488863c5-city-35744-16935f1b104.jpg?crop=true&width=1366&height=768&xhint=1725&yhint=1010",
          "name_arabic": "مكة المكرمة"
        },
        "geometry": {
          "type": "Point",
          "coordinates": [
            39.824558,
            21.421854
          ]
        }
     
      },
      {
        "type": "Feature",
        "properties": {
          "name": "AL QASSEM",
          "IMG":"https://content.r9cdn.net/rimg/dimg/7d/60/488863c5-city-35744-16935f1b104.jpg?crop=true&width=1366&height=768&xhint=1725&yhint=1010",
          "name_arabic": "القصيم"
        },
        "geometry": {
          "type": "Point",
          "coordinates": [
            43.951607,
            26.362284
          ]
        }
     
      },
      {
        "type": "Feature",
        "properties": {
          "name": "ASEER",
          "IMG":"https://content.r9cdn.net/rimg/dimg/7d/60/488863c5-city-35744-16935f1b104.jpg?crop=true&width=1366&height=768&xhint=1725&yhint=1010",
          "name_arabic": "عسير"
        },
        "geometry": {
          "type": "Point",
          "coordinates": [
            42.888398,
            19.201276
          ]
        }
     
      },
      {
        "type": "Feature",
        "properties": {
          "name": "EASTERN PROVINCE",
          "IMG":"https://content.r9cdn.net/rimg/dimg/7d/60/488863c5-city-35744-16935f1b104.jpg?crop=true&width=1366&height=768&xhint=1725&yhint=1010",
          "name_arabic": "المنطقة الشرقية"
        },
        "geometry": {
          "type": "Point",
          "coordinates": [
            50.081335,
            26.415578
          ]
        }
     
      },
      {
        "type": "Feature",
        "properties": {
          "name": "HAIL",
          "IMG":"https://content.r9cdn.net/rimg/dimg/7d/60/488863c5-city-35744-16935f1b104.jpg?crop=true&width=1366&height=768&xhint=1725&yhint=1010",
          "name_arabic": "حائل"
        },
        "geometry": {
          "type": "Point",
          "coordinates": [
            41.717481,
            27.512203
          ]
        }
     
      },
      {
        "type": "Feature",
        "properties": {
          "name": "JIZAN",
          "IMG":"https://content.r9cdn.net/rimg/dimg/7d/60/488863c5-city-35744-16935f1b104.jpg?crop=true&width=1366&height=768&xhint=1725&yhint=1010",
          "name_arabic": "جازان"
        },
        "geometry": {
          "type": "Point",
          "coordinates": [
            42.570684,
            16.882242
          ]
        }
     
      },
      {
        "type": "Feature",
        "properties": {
          "name": "NAJRAN",
          "IMG":"https://content.r9cdn.net/rimg/dimg/7d/60/488863c5-city-35744-16935f1b104.jpg?crop=true&width=1366&height=768&xhint=1725&yhint=1010",
          "name_arabic": "نجران "
        },
        "geometry": {
          "type": "Point",
          "coordinates": [
            44.229861,
            17.563199
          ]
        }
     
      },
      {
        "type": "Feature",
        "properties": {
          "name": "NORTHERN BORDERS",
          "IMG":"https://content.r9cdn.net/rimg/dimg/7d/60/488863c5-city-35744-16935f1b104.jpg?crop=true&width=1366&height=768&xhint=1725&yhint=1010",
          "name_arabic": "الحدود الشمالية"
        },
        "geometry": {
          "type": "Point",
          "coordinates": [
            41.034444,
            30.972467
          ]
        }
     
      }
    ]
  }
